{
    "Control Hub": {
        "no": 0,
        "name": "Control Hub",
        "ipAddr": "10.0.0.0",
        "lat": 1.2988469,
        "lng": 103.8360123,
        "type": "HB",
        "rptTo": 0,
        "actF": 0
    },
    "NUS": {
        "no": 1,
        "name": "NUS",
        "ipAddr": "10.0.0.1",
        "lat": 1.2964053,
        "lng": 103.7690442,
        "type": "GW",
        "rptTo": 0,
        "actF": 0
    },
    "NTU": {
        "no": 2,
        "name": "NTU",
        "ipAddr": "10.0.0.2",
        "lat": 1.3461474,
        "lng": 103.6793512,
        "type": "GW",
        "rptTo": 0,
        "actF": 0
    },
    "SUTD": {
        "no": 3,
        "name": "SUTD",
        "ipAddr": "10.0.0.3",
        "lat": 1.3413,
        "lng": 103.9638,
        "type": "GW",
        "rptTo": 0,
        "actF": 0
    },
    "SMU": {
        "no": 4,
        "name": "SMU",
        "ipAddr": "10.0.0.4",
        "lat": 1.296568,
        "lng": 103.852119,
        "type": "GW",
        "rptTo": 5,
        "actF": 0
    }
}